$GPGGA,032555.000,4301.1762,N,07606.9128,W,1,7,1.30,159.1,M,-34.0,M,,*68
$GPGLL,4301.1762,N,07606.9128,W,032555.000,A,A*4E
$GPGSA,A,3,11,28,01,30,17,07,22,,,,,,1.59,1.30,0.92*0F
$GPGSV,4,1,13,28,69,327,26,01,64,100,35,11,63,068,27,30,50,207,22*70
$GPGSV,4,2,13,17,37,258,23,07,31,182,26,08,22,064,19,22,15,113,24*78
$GPGSV,4,3,13,19,15,250,18,13,12,285,,03,07,132,,15,01,312,*71
$GPGSV,4,4,13,41,,,*7E
$GLGSV,1,1,00*65
$GPRMC,032555.000,A,4301.1762,N,07606.9128,W,0.77,115.62,230118,,,A*71
$GPVTG,115.62,T,,M,0.77,N,1.42,K,A*3B
$GPGGA,032556.000,4301.1757,N,07606.9125,W,1,7,1.30,159.1,M,-34.0,M,,*60
$GPGLL,4301.1757,N,07606.9125,W,032556.000,A,A*46
$GPGSA,A,3,11,28,01,30,17,07,22,,,,,,1.59,1.30,0.92*0F
$GPGSV,4,1,13,28,69,327,26,01,64,100,36,11,63,068,27,30,50,207,22*73
$GPGSV,4,2,13,17,37,258,24,07,31,182,26,08,22,064,20,22,15,113,24*75
$GPGSV,4,3,13,19,15,250,18,13,12,285,,03,07,132,,15,01,312,*71
$GPGSV,4,4,13,41,,,*7E
$GLGSV,1,1,00*65
$GPRMC,032556.000,A,4301.1757,N,07606.9125,W,0.00,115.62,230118,,,A*79
$GPVTG,115.62,T,,M,0.00,N,0.00,K,A*3C
$GPGGA,032557.000,4301.1753,N,07606.9124,W,1,7,1.29,159.2,M,-34.0,M,,*6F
$GPGLL,4301.1753,N,07606.9124,W,032557.000,A,A*42
$GPGSA,A,3,11,28,01,30,17,07,22,,,,,,1.59,1.29,0.92*07
$GPGSV,4,1,13,28,69,327,25,01,64,100,34,11,63,068,26,30,50,207,21*70
$GPGSV,4,2,13,17,37,258,23,07,31,182,26,08,22,064,19,22,15,113,22*7E
$GPGSV,4,3,13,19,15,250,18,13,12,285,,03,07,132,,15,01,312,*71
$GPGSV,4,4,13,43,,,*7C
$GLGSV,1,1,00*65
$GPRMC,032557.000,A,4301.1753,N,07606.9124,W,0.00,144.48,230118,,,A*71
$GPVTG,144.48,T,,M,0.00,N,0.00,K,A*30
$GPGGA,032558.000,4301.1748,N,07606.9122,W,1,7,1.29,159.1,M,-34.0,M,,*6F
$GPGLL,4301.1748,N,07606.9122,W,032558.000,A,A*41
$GPGSA,A,3,11,28,01,30,17,07,22,,,,,,1.59,1.29,0.92*07
$GPGSV,4,1,13,28,69,327,25,01,64,100,33,11,63,068,25,30,50,207,21*74
$GPGSV,4,2,13,17,37,258,22,07,31,182,26,08,22,064,,22,15,113,20*75
$GPGSV,4,3,13,19,15,250,17,13,12,285,,03,07,132,,15,01,312,*7E
$GPGSV,4,4,13,43,,,*7C
$GLGSV,1,1,00*65
$GPRMC,032558.000,A,4301.1748,N,07606.9122,W,0.00,153.16,230118,,,A*7F
$GPVTG,153.16,T,,M,0.00,N,0.00,K,A*3D
$GPGGA,032559.000,4301.1748,N,07606.9122,W,1,7,1.29,159.1,M,-34.0,M,,*6E
$GPGLL,4301.1748,N,07606.9122,W,032559.000,A,A*40
$GPGSA,A,3,11,28,01,30,17,07,22,,,,,,1.59,1.29,0.92*07
$GPGSV,4,1,13,28,69,327,25,01,64,100,32,11,63,068,25,30,50,207,21*75
$GPGSV,4,2,13,17,37,258,21,07,31,182,26,08,22,064,,22,15,113,19*7C
$GPGSV,4,3,13,19,15,250,16,13,12,285,,03,07,132,,15,01,312,*7F
$GPGSV,4,4,13,43,,,*7C
$GLGSV,1,1,00*65
$GPRMC,032559.000,A,4301.1748,N,07606.9122,W,0.00,153.16,230118,,,A*7E
$GPVTG,153.16,T,,M,0.00,N,0.00,K,A*3D
$GPGGA,032600.000,4301.1748,N,07606.9122,W,1,7,1.30,159.1,M,-34.0,M,,*69
$GPGLL,4301.1748,N,07606.9122,W,032600.000,A,A*4F
$GPGSA,A,3,11,28,01,30,17,07,22,,,,,,1.59,1.30,0.92*0F
$GPGSV,4,1,13,28,69,327,25,01,64,100,31,11,63,068,24,30,50,207,21*77
$GPGSV,4,2,13,17,37,258,22,07,31,182,25,08,22,064,,22,15,113,18*7D
$GPGSV,4,3,13,19,15,250,15,13,12,285,,03,07,132,,15,01,312,*7C
$GPGSV,4,4,13,43,,,*7C
$GLGSV,1,1,00*65
$GPRMC,032600.000,A,4301.1748,N,07606.9122,W,0.00,153.16,230118,,,A*71
$GPVTG,153.16,T,,M,0.00,N,0.00,K,A*3D
$GPGGA,032601.000,4301.1748,N,07606.9122,W,1,7,1.29,159.1,M,-34.0,M,,*60
$GPGLL,4301.1748,N,07606.9122,W,032601.000,A,A*4E
$GPGSA,A,3,11,28,01,30,17,07,22,,,,,,1.59,1.29,0.92*07
$GPGSV,4,1,13,28,69,327,25,01,64,100,30,11,63,068,24,30,50,207,21*76
$GPGSV,4,2,13,17,37,258,22,07,31,182,24,08,22,064,,22,15,113,18*7C
$GPGSV,4,3,13,19,15,250,14,13,12,285,,03,07,132,,15,01,312,*7D
$GPGSV,4,4,13,43,,,*7C
$GLGSV,1,1,00*65
$GPRMC,032601.000,A,4301.1748,N,07606.9122,W,0.00,153.16,230118,,,A*70
$GPVTG,153.16,T,,M,0.00,N,0.00,K,A*3D
$GPGGA,032602.000,4301.1748,N,07606.9122,W,1,7,1.30,159.1,M,-34.0,M,,*6B
$GPGLL,4301.1748,N,07606.9122,W,032602.000,A,A*4D
$GPGSA,A,3,11,28,01,30,17,07,22,,,,,,1.59,1.30,0.92*0F
$GPGSV,4,1,13,28,69,327,25,01,64,100,30,11,63,068,24,30,50,207,21*76
$GPGSV,4,2,13,17,37,258,22,07,31,182,24,08,22,064,,22,15,113,18*7C
$GPGSV,4,3,13,19,15,250,14,13,12,285,,03,07,132,,15,01,312,*7D
$GPGSV,4,4,13,43,,,*7C
$GLGSV,1,1,00*65
$GPRMC,032602.000,A,4301.1748,N,07606.9122,W,0.00,153.16,230118,,,A*73
$GPVTG,153.16,T,,M,0.00,N,0.00,K,A*3D
$GPGGA,032603.000,4301.1748,N,07606.9122,W,1,7,1.29,159.1,M,-34.0,M,,*62
$GPGLL,4301.1748,N,07606.9122,W,032603.000,A,A*4C
$GPGSA,A,3,11,28,01,30,17,07,22,,,,,,1.59,1.29,0.92*07
$GPGSV,4,1,13,28,69,327,25,01,64,100,30,11,63,068,24,30,50,207,21*76
$GPGSV,4,2,13,17,37,258,21,07,31,182,24,08,22,064,,22,15,113,18*7F
$GPGSV,4,3,13,19,15,250,14,13,12,285,,03,07,132,,15,01,312,*7D
$GPGSV,4,4,13,45,,,*7A
$GLGSV,1,1,00*65
$GPRMC,032603.000,A,4301.1748,N,07606.9122,W,0.00,153.16,230118,,,A*72
$GPVTG,153.16,T,,M,0.00,N,0.00,K,A*3D
$GPGGA,032604.000,4301.1748,N,07606.9122,W,1,7,1.29,159.1,M,-34.0,M,,*65
$GPGLL,4301.1748,N,07606.9122,W,032604.000,A,A*4B
$GPGSA,A,3,11,28,01,30,17,07,22,,,,,,1.59,1.29,0.92*07
$GPGSV,4,1,13,28,69,327,25,01,64,100,30,11,63,068,24,30,50,207,20*77
$GPGSV,4,2,13,17,37,258,20,07,31,182,24,08,22,064,,22,15,113,18*7E
$GPGSV,4,3,13,19,15,250,15,13,12,285,,03,07,132,,15,01,312,*7C
$GPGSV,4,4,13,45,,,*7A
$GLGSV,1,1,00*65
$GPRMC,032604.000,A,4301.1748,N,07606.9122,W,0.00,153.16,230118,,,A*75
$GPVTG,153.16,T,,M,0.00,N,0.00,K,A*3D
$GPGGA,032605.000,4301.1719,N,07606.9100,W,1,7,1.30,159.2,M,-34.0,M,,*6B
$GPGLL,4301.1719,N,07606.9100,W,032605.000,A,A*4E
$GPGSA,A,3,11,28,01,30,17,07,22,,,,,,1.59,1.30,0.92*0F
$GPGSV,4,1,13,28,69,327,25,01,64,100,30,11,63,068,24,30,50,207,20*77
$GPGSV,4,2,13,17,37,258,20,07,31,182,23,08,22,064,,22,15,113,17*76
$GPGSV,4,3,13,19,15,250,15,13,12,285,,03,07,132,,15,01,312,*7C
$GPGSV,4,4,13,45,,,*7A
$GLGSV,1,1,00*65
$GPRMC,032605.000,A,4301.1719,N,07606.9100,W,4.02,166.20,230118,,,A*75
$GPVTG,166.20,T,,M,4.02,N,7.45,K,A*3E
$GPGGA,032606.000,4301.1713,N,07606.9091,W,1,7,1.56,159.5,M,-34.0,M,,*6C
$GPGLL,4301.1713,N,07606.9091,W,032606.000,A,A*4E
$GPGSA,A,3,11,28,01,30,17,07,22,,,,,,2.76,1.56,2.28*02
$GPGSV,4,1,13,28,69,327,24,01,64,100,30,11,63,068,24,30,50,207,28*7E
$GPGSV,4,2,13,17,37,258,21,07,31,182,21,08,22,064,,22,15,113,17*75
$GPGSV,4,3,13,19,15,250,16,13,12,285,,03,07,132,,15,01,312,*7F
$GPGSV,4,4,13,45,,,*7A
$GLGSV,1,1,00*65
$GPRMC,032606.000,A,4301.1713,N,07606.9091,W,4.08,162.60,230118,,,A*7F
$GPVTG,162.60,T,,M,4.08,N,7.57,K,A*37
$GPGGA,032607.000,4301.1704,N,07606.9104,W,1,7,1.56,160.6,M,-34.0,M,,*6F
$GPGLL,4301.1704,N,07606.9104,W,032607.000,A,A*44
$GPGSA,A,3,11,28,01,30,17,07,22,,,,,,2.76,1.56,2.28*02
$GPGSV,4,1,13,28,69,327,24,01,64,100,31,11,63,068,25,30,50,207,29*7F
$GPGSV,4,2,13,17,37,258,30,07,31,182,20,08,22,064,,22,15,113,18*7B
$GPGSV,4,3,13,19,15,250,16,13,12,285,,03,07,132,,15,01,312,*7F
$GPGSV,4,4,13,45,,,*7A
$GLGSV,1,1,00*65
$GPRMC,032607.000,A,4301.1704,N,07606.9104,W,6.30,160.85,230118,,,A*75
$GPVTG,160.85,T,,M,6.30,N,11.68,K,A*0C
$GPGGA,032608.000,4301.1694,N,07606.9103,W,1,7,1.56,161.5,M,-34.0,M,,*6D
$GPGLL,4301.1694,N,07606.9103,W,032608.000,A,A*44
$GPGSA,A,3,11,28,01,30,17,07,22,,,,,,2.76,1.56,2.28*02
$GPGSV,4,1,13,28,69,327,23,01,64,100,30,11,63,068,25,30,50,207,28*78
$GPGSV,4,2,13,17,37,258,29,07,31,182,20,08,22,064,,22,15,113,18*73
$GPGSV,4,3,13,19,15,250,15,13,12,285,,03,07,132,,15,01,312,*7C
$GPGSV,4,4,13,45,,,*7A
$GLGSV,1,1,00*65
$GPRMC,032608.000,A,4301.1694,N,07606.9103,W,5.32,160.13,230118,,,A*7B
$GPVTG,160.13,T,,M,5.32,N,9.85,K,A*38
$GPGGA,032609.000,4301.1686,N,07606.9101,W,1,7,1.56,162.9,M,-34.0,M,,*62
$GPGLL,4301.1686,N,07606.9101,W,032609.000,A,A*44
$GPGSA,A,3,11,28,01,30,17,07,22,,,,,,2.76,1.56,2.28*02
$GPGSV,4,1,13,28,69,327,22,01,64,100,30,11,63,068,25,30,50,207,28*79
$GPGSV,4,2,13,17,37,258,28,07,31,182,19,08,22,064,,22,15,113,19*79
$GPGSV,4,3,13,19,15,250,15,13,12,285,,03,07,132,,15,01,312,*7C
$GPGSV,4,4,13,45,,,*7A
$GLGSV,1,1,00*65
$GPRMC,032609.000,A,4301.1686,N,07606.9101,W,5.38,160.94,230118,,,A*7E
$GPVTG,160.94,T,,M,5.38,N,9.96,K,A*3F
$GPGGA,032610.000,4301.1677,N,07606.9095,W,1,7,1.56,164.1,M,-34.0,M,,*66
$GPGLL,4301.1677,N,07606.9095,W,032610.000,A,A*4E
$GPGSA,A,3,11,28,01,30,17,07,22,,,,,,2.76,1.56,2.28*02
$GPGSV,3,1,12,28,69,327,20,01,64,100,18,11,63,068,17,30,50,207,18*75
$GPGSV,3,2,12,17,37,258,17,07,31,182,18,08,22,064,,22,15,113,18*73
$GPGSV,3,3,12,19,15,250,14,13,12,285,,03,07,132,,15,01,312,*7B
$GLGSV,1,1,00*65
$GPRMC,032610.000,A,4301.1677,N,07606.9095,W,4.69,160.78,230118,,,A*73
$GPVTG,160.78,T,,M,4.69,N,8.68,K,A*38
$GPGGA,032611.000,4301.1669,N,07606.9087,W,1,7,1.29,165.1,M,-34.0,M,,*62
$GPGLL,4301.1669,N,07606.9087,W,032611.000,A,A*43
$GPGSA,A,3,11,28,01,30,17,07,22,,,,,,1.59,1.29,0.92*07
$GPGSV,3,1,12,28,69,327,13,01,64,100,16,11,63,068,16,30,50,207,17*75
$GPGSV,3,2,12,17,37,258,16,07,31,182,16,08,22,064,,22,15,113,17*73
$GPGSV,3,3,12,19,15,250,13,13,12,285,,03,07,132,,15,01,312,*7C
$GLGSV,1,1,00*65
$GPRMC,032611.000,A,4301.1669,N,07606.9087,W,4.65,159.99,230118,,,A*77
$GPVTG,159.99,T,,M,4.65,N,8.61,K,A*38
$GPGGA,032612.000,4301.1658,N,07606.9078,W,1,7,1.29,166.1,M,-34.0,M,,*60
$GPGLL,4301.1658,N,07606.9078,W,032612.000,A,A*42
$GPGSA,A,3,11,28,01,30,17,07,22,,,,,,1.59,1.29,0.92*07
$GPGSV,3,1,12,28,69,327,12,01,64,100,15,11,63,068,15,30,50,207,15*76
$GPGSV,3,2,12,17,37,258,15,07,31,182,13,08,22,064,,22,15,113,12*70
$GPGSV,3,3,12,19,15,250,13,13,12,285,,03,07,132,,15,01,312,*7C
$GLGSV,1,1,00*65
$GPRMC,032612.000,A,4301.1658,N,07606.9078,W,4.69,158.73,230118,,,A*7F
$GPVTG,158.73,T,,M,4.69,N,8.68,K,A*38
$GPGGA,032613.000,4301.1647,N,07606.9068,W,1,7,1.29,167.0,M,-34.0,M,,*6E
$GPGLL,4301.1647,N,07606.9068,W,032613.000,A,A*4C
$GPGSA,A,3,11,28,01,30,17,07,22,,,,,,1.59,1.29,0.92*07
$GPGSV,3,1,12,28,69,327,11,01,64,100,11,11,63,068,11,30,50,207,10*70
$GPGSV,3,2,12,17,37,258,14,07,31,182,13,08,22,064,,22,15,113,11*72
$GPGSV,3,3,12,19,15,250,13,13,12,285,,03,07,132,,15,01,312,*7C
$GLGSV,1,1,00*65
$GPRMC,032613.000,A,4301.1647,N,07606.9068,W,4.70,157.74,230118,,,A*71
$GPVTG,157.74,T,,M,4.70,N,8.72,K,A*33
$GPGGA,032614.000,4301.1636,N,07606.9059,W,1,7,1.29,167.9,M,-34.0,M,,*64
$GPGLL,4301.1636,N,07606.9059,W,032614.000,A,A*4F
$GPGSA,A,3,11,28,01,30,17,07,22,,,,,,1.59,1.29,0.92*07
$GPGSV,3,1,12,28,69,327,13,01,64,100,09,11,63,068,12,30,50,207,13*7B
$GPGSV,3,2,12,17,37,258,13,07,31,182,10,08,22,064,,22,15,113,10*77
$GPGSV,3,3,12,19,15,250,14,13,12,285,,03,07,132,,15,01,312,*7B
$GLGSV,1,1,00*65
$GPRMC,032614.000,A,4301.1636,N,07606.9059,W,4.71,156.62,230118,,,A*75
$GPVTG,156.62,T,,M,4.71,N,8.73,K,A*35
$GPGGA,032615.000,4301.1625,N,07606.9050,W,1,6,1.47,168.9,M,-34.0,M,,*68
$GPGLL,4301.1625,N,07606.9050,W,032615.000,A,A*45
$GPGSA,A,3,11,28,01,30,17,07,,,,,,,1.76,1.47,0.98*08
$GPGSV,3,1,12,28,69,327,13,01,64,100,11,11,63,068,11,30,50,207,12*70
$GPGSV,3,2,12,17,37,258,11,07,31,182,10,08,22,064,,22,15,113,08*7C
$GPGSV,3,3,12,19,15,250,14,13,12,285,,03,07,132,,15,01,312,*7B
$GLGSV,1,1,00*65
$GPRMC,032615.000,A,4301.1625,N,07606.9050,W,4.71,155.94,230118,,,A*75
$GPVTG,155.94,T,,M,4.71,N,8.73,K,A*3F
$GPGGA,032616.000,4301.1614,N,07606.9041,W,1,7,1.29,169.8,M,-34.0,M,,*60
$GPGLL,4301.1614,N,07606.9041,W,032616.000,A,A*44
$GPGSA,A,3,11,28,01,30,17,07,22,,,,,,1.59,1.29,0.92*07
$GPGSV,3,1,12,28,69,327,12,01,64,100,11,11,63,068,13,30,50,207,10*71
$GPGSV,3,2,12,17,37,258,12,07,31,182,12,08,22,064,,22,15,113,12*76
$GPGSV,3,3,12,19,15,250,13,13,12,285,,03,07,132,,15,01,312,*7C
$GLGSV,1,1,00*65
$GPRMC,032616.000,A,4301.1614,N,07606.9041,W,4.72,155.13,230118,,,A*78
$GPVTG,155.13,T,,M,4.72,N,8.75,K,A*35
$GPGGA,032617.000,4301.1603,N,07606.9032,W,1,6,1.46,170.7,M,-34.0,M,,*6C
$GPGLL,4301.1603,N,07606.9032,W,032617.000,A,A*47
$GPGSA,A,3,11,28,01,30,17,07,,,,,,,1.76,1.46,0.98*09
$GPGSV,3,1,12,28,69,327,13,01,64,100,13,11,63,068,11,30,50,207,12*72
$GPGSV,3,2,12,17,37,258,14,07,31,182,14,08,22,064,,22,15,113,*75
$GPGSV,3,3,12,19,15,250,13,13,12,285,,03,07,132,,15,01,312,*7C
$GLGSV,1,1,00*65
$GPRMC,032617.000,A,4301.1603,N,07606.9032,W,4.72,154.33,230118,,,A*78
$GPVTG,154.33,T,,M,4.72,N,8.74,K,A*37
$GPGGA,032618.000,4301.1592,N,07606.9022,W,1,6,1.46,171.7,M,-34.0,M,,*68
$GPGLL,4301.1592,N,07606.9022,W,032618.000,A,A*42
$GPGSA,A,3,11,28,01,30,17,07,,,,,,,1.76,1.46,0.98*09
$GPGSV,3,1,12,28,69,327,14,01,64,100,12,11,63,068,12,30,50,207,10*75
$GPGSV,3,2,12,17,37,258,13,07,31,182,13,08,22,064,,22,15,113,*75
$GPGSV,3,3,12,19,15,250,13,13,12,285,,03,07,132,,15,01,312,*7C
$GLGSV,1,1,00*65
$GPRMC,032618.000,A,4301.1592,N,07606.9022,W,4.72,153.70,230118,,,A*7D
$GPVTG,153.70,T,,M,4.72,N,8.74,K,A*37
$GPGGA,032619.000,4301.1581,N,07606.9013,W,1,6,1.46,172.6,M,-34.0,M,,*6B
$GPGLL,4301.1581,N,07606.9013,W,032619.000,A,A*43
$GPGSA,A,3,11,28,01,30,17,07,,,,,,,1.76,1.46,0.98*09
$GPGSV,3,1,12,28,69,327,13,01,64,100,11,11,63,068,12,30,50,207,13*72
$GPGSV,3,2,12,17,37,258,13,07,31,182,12,08,22,064,,22,15,113,*74
$GPGSV,3,3,12,19,15,250,13,13,12,285,,03,07,132,,15,01,312,*7C
$GLGSV,1,1,00*65
$GPRMC,032619.000,A,4301.1581,N,07606.9013,W,4.72,151.60,230118,,,A*7F
$GPVTG,151.60,T,,M,4.72,N,8.74,K,A*34
$GPGGA,032620.000,4301.1570,N,07606.9004,W,6,1,99.99,173.5,M,-34.0,M,,*58
$GPGLL,,,,,032620.000,V,E*74
$GPGSA,A,1,28,,,,,,,,,,,,99.99,99.99,1.